[
  {
    "id": "p1",
    "name": "Alameda - Centro",
    "lat": -33.45,
    "lng": -70.66,
    "risk": "Alto",
    "probability": 0.78,
    "roadType": "Urbana",
    "region": "RM",
    "city": "Santiago",
    "timeband": "18:00-21:00"
  },
  {
    "id": "p2",
    "name": "Av. Costanera Norte",
    "lat": -33.41,
    "lng": -70.64,
    "risk": "Medio",
    "probability": 0.56,
    "roadType": "Autopista",
    "region": "RM",
    "city": "Santiago",
    "timeband": "07:30-09:30"
  },
  {
    "id": "p3",
    "name": "Ruta 68 - Valpara\u00edso",
    "lat": -33.14,
    "lng": -71.53,
    "risk": "Alto",
    "probability": 0.71,
    "roadType": "Autopista",
    "region": "Valpara\u00edso",
    "city": "Valpara\u00edso",
    "timeband": "16:00-19:00"
  },
  {
    "id": "p4",
    "name": "Ruta 160 - Concepci\u00f3n",
    "lat": -36.83,
    "lng": -73.05,
    "risk": "Medio",
    "probability": 0.49,
    "roadType": "Ruta",
    "region": "Biob\u00edo",
    "city": "Concepci\u00f3n",
    "timeband": "13:00-15:00"
  },
  {
    "id": "p5",
    "name": "Ruta 215 - Temuco",
    "lat": -38.74,
    "lng": -72.6,
    "risk": "Bajo",
    "probability": 0.22,
    "roadType": "Ruta",
    "region": "Araucan\u00eda",
    "city": "Temuco",
    "timeband": "08:00-10:00"
  }
]